[{"abbreviation": "AL", "flower": "Camellia", "name": "Alabama", "density": 92.7756581457459, "image": "https://raw.githubusercontent.com/roshan-dongre/idb/master/backend/data/stateflags/AL.png", "field_offices": ["birmingham", "mobile"], "bird": "Yellowhammer", "area_size": "medium", "area": 52420, "capital": "Montgomery", "lat": 32.806671, "region": "South", "lng": -86.79113, "pop_size": "medium", "id": 1, "population": 4863300}, {"abbreviation": "AK", "flower": "Forget-me-not", "name": "Alaska", "density": 1.1149862335132796, "image": "https://raw.githubusercontent.com/roshan-dongre/idb/master/backend/data/stateflags/AK.png", "field_offices": ["anchorage"], "bird": "Willow Ptarmigan", "area_size": "giant", "area": 665384, "capital": "Juneau", "lat": 61.370716, "region": "West", "lng": -152.404419, "pop_size": "tiny", "id": 2, "population": 741894}, {"abbreviation": "AZ", "flower": "Saguaro Cactus Blossom", "name": "Arizona", "density": 60.804202122993246, "image": "https://raw.githubusercontent.com/roshan-dongre/idb/master/backend/data/stateflags/AZ.png", "field_offices": ["phoenix"], "bird": "Cactus Wren", "area_size": "giant", "area": 113990, "capital": "Phoenix", "lat": 33.729759, "region": "West", "lng": -111.431221, "pop_size": "large", "id": 3, "population": 6931071}, {"abbreviation": "AR", "flower": "Apple Blossom", "name": "Arkansas", "density": 56.193313024182935, "image": "https://raw.githubusercontent.com/roshan-dongre/idb/master/backend/data/stateflags/AR.png", "field_offices": ["littlerock"], "bird": "Northern Mockingbird", "area_size": "medium", "area": 53178, "capital": "Little Rock", "lat": 34.969704, "region": "South", "lng": -92.373123, "pop_size": "small", "id": 4, "population": 2988248}, {"abbreviation": "CA", "flower": "California Poppy", "name": "California", "density": 239.77383075945656, "image": "https://raw.githubusercontent.com/roshan-dongre/idb/master/backend/data/stateflags/CA.png", "field_offices": ["sandiego", "losangeles", "sacramento", "sanfrancisco"], "bird": "California Quail", "area_size": "giant", "area": 163696, "capital": "Sacramento", "lat": 36.116203, "region": "West", "lng": -119.681564, "pop_size": "giant", "id": 5, "population": 39250017}, {"abbreviation": "CO", "flower": "Rocky Mountain Columbine", "name": "Colorado", "density": 53.226874045324855, "image": "https://raw.githubusercontent.com/roshan-dongre/idb/master/backend/data/stateflags/CO.png", "field_offices": ["denver"], "bird": "Lark Bunting", "area_size": "giant", "area": 104093, "capital": "Denver", "lat": 39.059811, "region": "West", "lng": -105.311104, "pop_size": "large", "id": 6, "population": 5540545}, {"abbreviation": "CT", "flower": "Mountain Laurel", "name": "Connecticut", "density": 645.2195561970052, "image": "https://raw.githubusercontent.com/roshan-dongre/idb/master/backend/data/stateflags/CT.png", "field_offices": ["newhaven"], "bird": "American Robin", "area_size": "tiny", "area": 5543, "capital": "Hartford", "lat": 41.597782, "region": "Northeast", "lng": -72.755371, "pop_size": "medium", "id": 7, "population": 3576452}, {"abbreviation": "DE", "flower": "Peach Blossom", "name": "Delaware", "density": 382.6627813504823, "image": "https://raw.githubusercontent.com/roshan-dongre/idb/master/backend/data/stateflags/DE.png", "field_offices": ["baltimore"], "bird": "Delaware Blue Hen", "area_size": "tiny", "area": 2488, "capital": "Dover", "lat": 39.318523, "region": "South", "lng": -75.507141, "pop_size": "tiny", "id": 8, "population": 952065}, {"abbreviation": "FL", "flower": "Orange Blossom", "name": "Florida", "density": 313.4637985309549, "image": "https://raw.githubusercontent.com/roshan-dongre/idb/master/backend/data/stateflags/FL.png", "field_offices": ["jacksonville", "tampa", "miami"], "bird": "Northern Mockingbird", "area_size": "medium", "area": 65757, "capital": "Tallahassee", "lat": 27.766279, "region": "South", "lng": -81.686783, "pop_size": "giant", "id": 9, "population": 20612439}, {"abbreviation": "GA", "flower": "Cherokee Rose", "name": "Georgia", "density": 173.50224652923853, "image": "https://raw.githubusercontent.com/roshan-dongre/idb/master/backend/data/stateflags/GA.png", "field_offices": ["atlanta"], "bird": "Brown Thrasher", "area_size": "medium", "area": 59425, "capital": "Atlanta", "lat": 33.040619, "region": "South", "lng": -83.643074, "pop_size": "giant", "id": 10, "population": 10310371}, {"abbreviation": "HI", "flower": "Hawaiian Hibiscus", "name": "Hawaii", "density": 130.68859207757754, "image": "https://raw.githubusercontent.com/roshan-dongre/idb/master/backend/data/stateflags/HI.png", "field_offices": ["honolulu"], "bird": "Hawaiian Goose", "area_size": "small", "area": 10931, "capital": "Honolulu", "lat": 21.094318, "region": "West", "lng": -157.498337, "pop_size": "small", "id": 11, "population": 1428557}, {"abbreviation": "ID", "flower": "Syringa", "name": "Idaho", "density": 20.140963048056673, "image": "https://raw.githubusercontent.com/roshan-dongre/idb/master/backend/data/stateflags/ID.png", "field_offices": ["saltlakecity"], "bird": "Mountain Bluebird", "area_size": "large", "area": 83568, "capital": "Boise", "lat": 44.240459, "region": "West", "lng": -114.478828, "pop_size": "small", "id": 12, "population": 1683140}, {"abbreviation": "IL", "flower": "Violet", "name": "Illinois", "density": 221.0477612971181, "image": "https://raw.githubusercontent.com/roshan-dongre/idb/master/backend/data/stateflags/IL.png", "field_offices": ["chicago", "springfield"], "bird": "Northern Cardinal", "area_size": "medium", "area": 57913, "capital": "Springfield", "lat": 40.349457, "region": "Midwest", "lng": -88.986137, "pop_size": "giant", "id": 13, "population": 12801539}, {"abbreviation": "IN", "flower": "Peony", "name": "Indiana", "density": 182.1316620445372, "image": "https://raw.githubusercontent.com/roshan-dongre/idb/master/backend/data/stateflags/IN.png", "field_offices": ["indianapolis"], "bird": "Northern Cardinal", "area_size": "small", "area": 36419, "capital": "Indianapolis", "lat": 39.849426, "region": "Midwest", "lng": -86.258278, "pop_size": "large", "id": 14, "population": 6633053}, {"abbreviation": "IA", "flower": "Wild Prairie Rose", "name": "Iowa", "density": 55.70608828547057, "image": "https://raw.githubusercontent.com/roshan-dongre/idb/master/backend/data/stateflags/IA.png", "field_offices": ["omaha"], "bird": "Eastern Goldfinch", "area_size": "medium", "area": 56272, "capital": "Des Moines", "lat": 42.011539, "region": "Midwest", "lng": -93.210526, "pop_size": "medium", "id": 15, "population": 3134693}, {"abbreviation": "KS", "flower": "Sunflower", "name": "Kansas", "density": 35.33494980432193, "image": "https://raw.githubusercontent.com/roshan-dongre/idb/master/backend/data/stateflags/KS.png", "field_offices": ["kansascity"], "bird": "Western Meadowlark", "area_size": "large", "area": 82278, "capital": "Topeka", "lat": 38.5266, "region": "Midwest", "lng": -96.726486, "pop_size": "small", "id": 16, "population": 2907289}, {"abbreviation": "KY", "flower": "Goldenrod", "name": "Kentucky", "density": 109.80706313262553, "image": "https://raw.githubusercontent.com/roshan-dongre/idb/master/backend/data/stateflags/KY.png", "field_offices": ["louisville"], "bird": "Northern Cardinal", "area_size": "small", "area": 40407, "capital": "Frankfort", "lat": 37.66814, "region": "South", "lng": -84.670067, "pop_size": "medium", "id": 17, "population": 4436974}, {"abbreviation": "LA", "flower": "Magnolia", "name": "Louisiana", "density": 89.38229791133682, "image": "https://raw.githubusercontent.com/roshan-dongre/idb/master/backend/data/stateflags/LA.png", "field_offices": ["neworleans"], "bird": "Brown Pelican", "area_size": "medium", "area": 52378, "capital": "Baton Rouge", "lat": 31.169546, "region": "South", "lng": -91.867805, "pop_size": "medium", "id": 18, "population": 4681666}, {"abbreviation": "ME", "flower": "White Pine Cone and Tassel", "name": "Maine", "density": 37.63472681534243, "image": "https://raw.githubusercontent.com/roshan-dongre/idb/master/backend/data/stateflags/ME.png", "field_offices": ["boston"], "bird": "Black-capped Chickadee", "area_size": "small", "area": 35379, "capital": "Augusta", "lat": 44.693947, "region": "Northeast", "lng": -69.381927, "pop_size": "small", "id": 19, "population": 1331479}, {"abbreviation": "MD", "flower": "Black-eyed Susan", "name": "Maryland", "density": 485.0017734784361, "image": "https://raw.githubusercontent.com/roshan-dongre/idb/master/backend/data/stateflags/MD.png", "field_offices": ["baltimore"], "bird": "Baltimore Oriole", "area_size": "small", "area": 12405, "capital": "Annapolis", "lat": 39.063946, "region": "South", "lng": -76.802101, "pop_size": "large", "id": 20, "population": 6016447}, {"abbreviation": "MA", "flower": "Mayflower", "name": "Massachusetts", "density": 645.4215463331439, "image": "https://raw.githubusercontent.com/roshan-dongre/idb/master/backend/data/stateflags/MA.png", "field_offices": ["boston"], "bird": "Black-capped Chickadee", "area_size": "small", "area": 10554, "capital": "Boston", "lat": 42.230171, "region": "Northeast", "lng": -71.530106, "pop_size": "large", "id": 21, "population": 6811779}, {"abbreviation": "MI", "flower": "Apple Blossom", "name": "Michigan", "density": 102.65734699575032, "image": "https://raw.githubusercontent.com/roshan-dongre/idb/master/backend/data/stateflags/MI.png", "field_offices": ["detroit"], "bird": "American Robin", "area_size": "large", "area": 96713, "capital": "Lansing", "lat": 43.326618, "region": "Midwest", "lng": -84.536095, "pop_size": "large", "id": 22, "population": 9928300}, {"abbreviation": "MN", "flower": "Pink and White Lady's Slipper", "name": "Minnesota", "density": 63.49516305285558, "image": "https://raw.githubusercontent.com/roshan-dongre/idb/master/backend/data/stateflags/MN.png", "field_offices": ["minneapolis"], "bird": "Common Loon", "area_size": "large", "area": 86935, "capital": "Saint Paul", "lat": 45.694454, "region": "Midwest", "lng": -93.900192, "pop_size": "large", "id": 23, "population": 5519952}, {"abbreviation": "MS", "flower": "Magnolia", "name": "Mississippi", "density": 61.71101154219405, "image": "https://raw.githubusercontent.com/roshan-dongre/idb/master/backend/data/stateflags/MS.png", "field_offices": ["jackson"], "bird": "Northern Mockingbird", "area_size": "small", "area": 48431, "capital": "Jackson", "lat": 32.741646, "region": "South", "lng": -89.678696, "pop_size": "small", "id": 24, "population": 2988726}, {"abbreviation": "MO", "flower": "Hawthorn", "name": "Missouri", "density": 87.40997905488767, "image": "https://raw.githubusercontent.com/roshan-dongre/idb/master/backend/data/stateflags/MO.png", "field_offices": ["kansascity", "stlouis"], "bird": "Eastern Bluebird", "area_size": "medium", "area": 69706, "capital": "Jefferson City", "lat": 38.456085, "region": "Midwest", "lng": -92.288368, "pop_size": "large", "id": 25, "population": 6093000}, {"abbreviation": "MT", "flower": "Bitterroot", "name": "Montana", "density": 7.0900917443671405, "image": "https://raw.githubusercontent.com/roshan-dongre/idb/master/backend/data/stateflags/MT.png", "field_offices": ["saltlakecity"], "bird": "Western Meadowlark", "area_size": "giant", "area": 147039, "capital": "Helena", "lat": 46.921925, "region": "West", "lng": -110.454353, "pop_size": "small", "id": 26, "population": 1042520}, {"abbreviation": "NE", "flower": "Goldenrod", "name": "Nebraska", "density": 24.656625337763586, "image": "https://raw.githubusercontent.com/roshan-dongre/idb/master/backend/data/stateflags/NE.png", "field_offices": ["omaha"], "bird": "Western Meadowlark", "area_size": "large", "area": 77347, "capital": "Lincoln", "lat": 41.12537, "region": "Midwest", "lng": -98.268082, "pop_size": "small", "id": 27, "population": 1907116}, {"abbreviation": "NV", "flower": "Sagebrush", "name": "Nevada", "density": 26.58977489576833, "image": "https://raw.githubusercontent.com/roshan-dongre/idb/master/backend/data/stateflags/NV.png", "field_offices": ["lasvegas"], "bird": "Mountain Bluebird", "area_size": "giant", "area": 110571, "capital": "Carson City", "lat": 38.313515, "region": "West", "lng": -117.055374, "pop_size": "small", "id": 28, "population": 2940058}, {"abbreviation": "NH", "flower": "Purple Lilac", "name": "New Hampshire", "density": 142.77409348593432, "image": "https://raw.githubusercontent.com/roshan-dongre/idb/master/backend/data/stateflags/NH.png", "field_offices": ["boston"], "bird": "Purple Finch", "area_size": "tiny", "area": 9349, "capital": "Concord", "lat": 43.452492, "region": "Northeast", "lng": -71.563896, "pop_size": "small", "id": 29, "population": 1334795}, {"abbreviation": "NJ", "flower": "Violet", "name": "New Jersey", "density": 1025.5066498509516, "image": "https://raw.githubusercontent.com/roshan-dongre/idb/master/backend/data/stateflags/NJ.png", "field_offices": ["newark"], "bird": "Eastern Goldfinch", "area_size": "tiny", "area": 8722, "capital": "Trenton", "lat": 40.298904, "region": "Northeast", "lng": -74.521011, "pop_size": "large", "id": 30, "population": 8944469}, {"abbreviation": "NM", "flower": "Yucca Flower", "name": "New Mexico", "density": 17.115017682375196, "image": "https://raw.githubusercontent.com/roshan-dongre/idb/master/backend/data/stateflags/NM.png", "field_offices": ["albuquerque"], "bird": "Roadrunner", "area_size": "giant", "area": 121590, "capital": "Santa Fe", "lat": 34.840515, "region": "West", "lng": -106.248482, "pop_size": "small", "id": 31, "population": 2081015}, {"abbreviation": "NY", "flower": "Rose", "name": "New York", "density": 361.94026102577266, "image": "https://raw.githubusercontent.com/roshan-dongre/idb/master/backend/data/stateflags/NY.png", "field_offices": ["albany", "newyork", "buffalo"], "bird": "Eastern Bluebird", "area_size": "medium", "area": 54554, "capital": "Albany", "lat": 42.165726, "region": "Northeast", "lng": -74.948051, "pop_size": "giant", "id": 32, "population": 19745289}, {"abbreviation": "NC", "flower": "Flowering Dogwood", "name": "North Carolina", "density": 188.5354242925361, "image": "https://raw.githubusercontent.com/roshan-dongre/idb/master/backend/data/stateflags/NC.png", "field_offices": ["charlotte"], "bird": "Northern Cardinal", "area_size": "medium", "area": 53819, "capital": "Raleigh", "lat": 35.630066, "region": "South", "lng": -79.806419, "pop_size": "giant", "id": 33, "population": 10146788}, {"abbreviation": "ND", "flower": "Wild Prairie Rose", "name": "North Dakota", "density": 10.720982206002999, "image": "https://raw.githubusercontent.com/roshan-dongre/idb/master/backend/data/stateflags/ND.png", "field_offices": ["minneapolis"], "bird": "Western Meadowlark", "area_size": "large", "area": 70698, "capital": "Bismarck", "lat": 47.528912, "region": "Midwest", "lng": -99.784012, "pop_size": "tiny", "id": 34, "population": 757952}, {"abbreviation": "OH", "flower": "Scarlet Carnation", "name": "Ohio", "density": 259.104807585053, "image": "https://raw.githubusercontent.com/roshan-dongre/idb/master/backend/data/stateflags/OH.png", "field_offices": ["cincinnati", "cleveland"], "bird": "Northern Cardinal", "area_size": "small", "area": 44825, "capital": "Columbus", "lat": 40.388783, "region": "Midwest", "lng": -82.764915, "pop_size": "giant", "id": 35, "population": 11614373}, {"abbreviation": "OK", "flower": "Oklahoma Rose", "name": "Oklahoma", "density": 56.13266474004978, "image": "https://raw.githubusercontent.com/roshan-dongre/idb/master/backend/data/stateflags/OK.png", "field_offices": ["oklahomacity"], "bird": "Scissor-tailed Flycatcher", "area_size": "medium", "area": 69898, "capital": "Oklahoma City", "lat": 35.565342, "region": "South", "lng": -96.928917, "pop_size": "medium", "id": 36, "population": 3923561}, {"abbreviation": "OR", "flower": "Oregon Grape", "name": "Oregon", "density": 41.609557014779725, "image": "https://raw.githubusercontent.com/roshan-dongre/idb/master/backend/data/stateflags/OR.png", "field_offices": ["portland"], "bird": "Western Meadowlark", "area_size": "large", "area": 98378, "capital": "Salem", "lat": 44.572021, "region": "West", "lng": -122.070938, "pop_size": "medium", "id": 37, "population": 4093465}, {"abbreviation": "PA", "flower": "Mountain Laurel", "name": "Pennsylvania", "density": 277.59210926303905, "image": "https://raw.githubusercontent.com/roshan-dongre/idb/master/backend/data/stateflags/PA.png", "field_offices": ["philadelphia", "pittsburgh"], "bird": "Ruffled Grouse", "area_size": "small", "area": 46054, "capital": "Harrisburg", "lat": 40.590752, "region": "Northeast", "lng": -77.209755, "pop_size": "giant", "id": 38, "population": 12784227}, {"abbreviation": "RI", "flower": "Violet", "name": "Rhode Island", "density": 684.2137305699482, "image": "https://raw.githubusercontent.com/roshan-dongre/idb/master/backend/data/stateflags/RI.png", "field_offices": ["boston"], "bird": "Rhode Island Red", "area_size": "tiny", "area": 1544, "capital": "Providence", "lat": 41.680893, "region": "Northeast", "lng": -71.51178, "pop_size": "small", "id": 39, "population": 1056426}, {"abbreviation": "SC", "flower": "Yellow Jessamine", "name": "South Carolina", "density": 154.93813241723922, "image": "https://raw.githubusercontent.com/roshan-dongre/idb/master/backend/data/stateflags/SC.png", "field_offices": ["columbia"], "bird": "Carolina Wren", "area_size": "small", "area": 32020, "capital": "Columbia", "lat": 33.856892, "region": "South", "lng": -80.945007, "pop_size": "medium", "id": 40, "population": 4961119}, {"abbreviation": "SD", "flower": "Pasque Flower", "name": "South Dakota", "density": 11.22290086234844, "image": "https://raw.githubusercontent.com/roshan-dongre/idb/master/backend/data/stateflags/SD.png", "field_offices": ["minneapolis"], "bird": "Ring-necked Pheasant", "area_size": "large", "area": 77115, "capital": "Pierre", "lat": 44.299782, "region": "Midwest", "lng": -99.438828, "pop_size": "tiny", "id": 41, "population": 865454}, {"abbreviation": "TN", "flower": "Iris", "name": "Tennessee", "density": 157.82066249050874, "image": "https://raw.githubusercontent.com/roshan-dongre/idb/master/backend/data/stateflags/TN.png", "field_offices": ["memphis", "knoxville"], "bird": "Northern Mockingbird", "area_size": "small", "area": 42144, "capital": "Nashville", "lat": 35.747845, "region": "South", "lng": -86.692345, "pop_size": "large", "id": 42, "population": 6651194}, {"abbreviation": "TX", "flower": "Bluebonnet", "name": "Texas", "density": 103.73421793325292, "image": "https://raw.githubusercontent.com/roshan-dongre/idb/master/backend/data/stateflags/TX.png", "field_offices": ["houston", "sanantonio", "dallas", "elpaso"], "bird": "Northern Mockingbird", "area_size": "giant", "area": 268596, "capital": "Austin", "lat": 31.054487, "region": "South", "lng": -97.563461, "pop_size": "giant", "id": 43, "population": 27862596}, {"abbreviation": "UT", "flower": "Sego Lily", "name": "Utah", "density": 35.94064502450057, "image": "https://raw.githubusercontent.com/roshan-dongre/idb/master/backend/data/stateflags/UT.png", "field_offices": ["saltlakecity"], "bird": "California Gull", "area_size": "large", "area": 84896, "capital": "Salt Lake City", "lat": 40.150032, "region": "West", "lng": -111.862434, "pop_size": "medium", "id": 44, "population": 3051217}, {"abbreviation": "VT", "flower": "Red Clover", "name": "Vermont", "density": 64.95361896838602, "image": "https://raw.githubusercontent.com/roshan-dongre/idb/master/backend/data/stateflags/VT.png", "field_offices": ["albany"], "bird": "Hermit Thrush", "area_size": "tiny", "area": 9616, "capital": "Montpelier", "lat": 44.045876, "region": "Northeast", "lng": -72.710686, "pop_size": "tiny", "id": 45, "population": 624594}, {"abbreviation": "VA", "flower": "American Dogwood", "name": "Virginia", "density": 196.6570346472156, "image": "https://raw.githubusercontent.com/roshan-dongre/idb/master/backend/data/stateflags/VA.png", "field_offices": ["washingtondc", "richmond", "norfolk"], "bird": "Northern Cardinal", "area_size": "small", "area": 42774, "capital": "Richmond", "lat": 37.769337, "region": "South", "lng": -78.169968, "pop_size": "large", "id": 46, "population": 8411808}, {"abbreviation": "WA", "flower": "Coast Rhododendron", "name": "Washington", "density": 102.22028977376327, "image": "https://raw.githubusercontent.com/roshan-dongre/idb/master/backend/data/stateflags/WA.png", "field_offices": ["seattle"], "bird": "Willow Goldfinch", "area_size": "large", "area": 71297, "capital": "Olympia", "lat": 47.400902, "region": "West", "lng": -121.490494, "pop_size": "large", "id": 47, "population": 7288000}, {"abbreviation": "DC", "flower": "American Beauty Rose", "name": "Washington DC", "density": 10017.20588235294, "image": "https://raw.githubusercontent.com/roshan-dongre/idb/master/backend/data/stateflags/DC.png", "field_offices": ["washingtondc"], "bird": "Wood Thrush", "area_size": "tiny", "area": 68, "capital": "", "lat": 38.897438, "region": "South", "lng": -77.026817, "pop_size": "tiny", "id": 48, "population": 681170}, {"abbreviation": "WV", "flower": "Rhododendron", "name": "West Virginia", "density": 75.57168799009493, "image": "https://raw.githubusercontent.com/roshan-dongre/idb/master/backend/data/stateflags/WV.png", "field_offices": ["pittsburgh"], "bird": "Northern Cardinal", "area_size": "small", "area": 24230, "capital": "Charleston", "lat": 38.491226, "region": "South", "lng": -80.954453, "pop_size": "small", "id": 49, "population": 1831102}, {"abbreviation": "WI", "flower": "Wood Violet", "name": "Wisconsin", "density": 88.22993770611946, "image": "https://raw.githubusercontent.com/roshan-dongre/idb/master/backend/data/stateflags/WI.png", "field_offices": ["milwaukee"], "bird": "American Robin", "area_size": "medium", "area": 65496, "capital": "Madison", "lat": 44.268543, "region": "Midwest", "lng": -89.616508, "pop_size": "large", "id": 50, "population": 5778708}, {"abbreviation": "WY", "flower": "Indian Paintbrush", "name": "Wyoming", "density": 5.9859221166920555, "image": "https://raw.githubusercontent.com/roshan-dongre/idb/master/backend/data/stateflags/WY.png", "field_offices": ["denver"], "bird": "Western Meadowlark", "area_size": "large", "area": 97813, "capital": "Cheyenne", "lat": 42.755966, "region": "West", "lng": -107.30249, "pop_size": "tiny", "id": 51, "population": 585501}]